141946.531  $GPRMC,141946.00,A,1333.20144,S,05215.72767,W,0.546,,221022,,,A
141946.564  $GPVTG,,T,,M,0.546,N,1.011,K,A
141946.631  $GPGGA,141946.00,1333.20144,S,05215.72767,W,1,11,0.78,389.3,M,-9.6,M,,
141946.698  $GPGSA,A,3,24,11,06,15,12,13,02,29,20,25,05,,1.57,0.78,1.37
141946.765  $GPGSV,4,1,14,02,41,341,30,05,15,022,24,06,25,136,19,11,54,110,28
141946.831  $GPGSV,4,2,14,12,36,189,24,13,11,010,17,15,20,341,22,19,02,138,16
141946.932  $GPGSV,4,3,14,20,21,060,22,24,80,250,31,25,18,221,15,28,02,087,22
141946.965  $GPGSV,4,4,14,29,30,282,26,32,01,235,
141947.024  $GPGLL,1333.20144,S,05215.72767,W,141946.00,A,A
141947.532  $GPRMC,141947.00,A,1333.20145,S,05215.72780,W,0.276,,221022,,,A
141947.565  $GPVTG,,T,,M,0.276,N,0.511,K,A
141947.632  $GPGGA,141947.00,1333.20145,S,05215.72780,W,1,11,0.78,389.4,M,-9.6,M,,
141947.699  $GPGSA,A,3,24,11,06,15,12,13,02,29,20,25,05,,1.57,0.78,1.37
141947.765  $GPGSV,4,1,14,02,41,341,30,05,15,022,23,06,25,136,19,11,54,110,28
141947.832  $GPGSV,4,2,14,12,36,189,24,13,11,010,16,15,20,341,22,19,02,138,15
141947.932  $GPGSV,4,3,14,20,21,060,21,24,80,250,30,25,18,221,14,28,02,087,23
141947.966  $GPGSV,4,4,14,29,30,282,26,32,01,235,
141948.024  $GPGLL,1333.20145,S,05215.72780,W,141947.00,A,A
141948.531  $GPRMC,141948.00,A,1333.20144,S,05215.72792,W,0.370,,221022,,,A
141948.565  $GPVTG,,T,,M,0.370,N,0.685,K,A
141948.631  $GPGGA,141948.00,1333.20144,S,05215.72792,W,1,11,0.78,389.7,M,-9.6,M,,
141948.698  $GPGSA,A,3,24,11,06,15,12,13,02,29,20,25,05,,1.57,0.78,1.37
141948.767  $GPGSV,4,1,14,02,41,341,30,05,15,022,23,06,25,136,20,11,54,110,28
141948.832  $GPGSV,4,2,14,12,36,189,25,13,11,010,16,15,20,341,21,19,02,138,16
141948.932  $GPGSV,4,3,14,20,21,060,22,24,80,250,31,25,18,221,13,28,02,087,23
141948.965  $GPGSV,4,4,14,29,30,282,26,32,01,235,
141949.024  $GPGLL,1333.20144,S,05215.72792,W,141948.00,A,A
141949.535  $GPRMC,141949.00,A,1333.20132,S,05215.72801,W,0.375,,221022,,,A
141949.568  $GPVTG,,T,,M,0.375,N,0.694,K,A
141949.635  $GPGGA,141949.00,1333.20132,S,05215.72801,W,1,11,0.78,390.0,M,-9.6,M,,
141949.701  $GPGSA,A,3,24,11,06,15,12,13,02,29,20,25,05,,1.57,0.78,1.37
141949.769  $GPGSV,4,1,14,02,41,341,29,05,15,022,23,06,25,136,19,11,54,110,27
141949.835  $GPGSV,4,2,14,12,36,189,24,13,11,010,15,15,20,341,20,19,02,138,17
141949.936  $GPGSV,4,3,14,20,21,060,23,24,80,250,30,25,18,221,13,28,02,087,22
141949.969  $GPGSV,4,4,14,29,30,282,26,32,01,235,
141950.028  $GPGLL,1333.20132,S,05215.72801,W,141949.00,A,A
141950.531  $GPRMC,141950.00,A,1333.20126,S,05215.72811,W,0.348,,221022,,,A
141950.565  $GPVTG,,T,,M,0.348,N,0.645,K,A
141950.632  $GPGGA,141950.00,1333.20126,S,05215.72811,W,1,11,0.78,389.5,M,-9.6,M,,
141950.698  $GPGSA,A,3,24,11,06,15,12,13,02,29,20,25,05,,1.57,0.78,1.36
141950.765  $GPGSV,4,1,14,02,41,341,29,05,15,022,24,06,25,136,19,11,54,110,27
141950.832  $GPGSV,4,2,14,12,36,189,25,13,11,010,16,15,20,341,20,19,02,138,16
141950.932  $GPGSV,4,3,14,20,21,060,22,24,80,250,31,25,18,221,13,28,02,087,22
141950.965  $GPGSV,4,4,14,29,30,282,25,32,01,235,
141951.024  $GPGLL,1333.20126,S,05215.72811,W,141950.00,A,A
141951.525  $GPRMC,141951.00,A,1333.20113,S,05215.72831,W,0.253,,221022,,,A
141951.558  $GPVTG,,T,,M,0.253,N,0.468,K,A
141951.625  $GPGGA,141951.00,1333.20113,S,05215.72831,W,1,09,0.93,389.3,M,-9.6,M,,
141951.692  $GPGSA,A,3,24,11,06,15,12,02,29,20,05,,,,1.94,0.93,1.70
141951.758  $GPGSV,4,1,14,02,41,341,30,05,15,022,22,06,25,136,19,11,54,110,27
141951.826  $GPGSV,4,2,14,12,36,189,23,13,11,010,,15,20,341,21,19,02,138,15
141951.892  $GPGSV,4,3,14,20,21,060,20,24,80,250,26,25,18,221,,28,02,087,21
141951.959  $GPGSV,4,4,14,29,30,282,27,32,01,235,
141952.009  $GPGLL,1333.20113,S,05215.72831,W,141951.00,A,A
141952.524  $GPRMC,141952.00,A,1333.20116,S,05215.72850,W,0.611,,221022,,,A
141952.557  $GPVTG,,T,,M,0.611,N,1.132,K,A
141952.624  $GPGGA,141952.00,1333.20116,S,05215.72850,W,1,09,0.93,389.4,M,-9.6,M,,
141952.691  $GPGSA,A,3,24,11,06,15,12,02,29,20,05,,,,1.94,0.93,1.70
141952.758  $GPGSV,4,1,14,02,41,341,30,05,15,022,19,06,25,136,18,11,54,110,27
141952.825  $GPGSV,4,2,14,12,36,189,22,13,11,010,,15,20,341,21,19,02,138,15
141952.891  $GPGSV,4,3,14,20,21,060,18,24,80,250,30,25,18,221,,28,02,087,21
141952.958  $GPGSV,4,4,14,29,30,282,27,32,01,235,
141953.008  $GPGLL,1333.20116,S,05215.72850,W,141952.00,A,A
141953.525  $GPRMC,141953.00,A,1333.20111,S,05215.72866,W,0.399,,221022,,,A
141953.559  $GPVTG,,T,,M,0.399,N,0.740,K,A
141953.625  $GPGGA,141953.00,1333.20111,S,05215.72866,W,1,09,0.93,389.7,M,-9.6,M,,
141953.692  $GPGSA,A,3,24,11,06,15,12,02,29,20,05,,,,1.94,0.93,1.70
141953.759  $GPGSV,4,1,14,02,41,341,30,05,15,022,16,06,25,136,18,11,54,110,26
141954.049  $GPGSV,4,2,14,12,36,189,22,13,11,010,,15,20,341,21,19,02,138,14
141954.049  $GPGSV,4,3,14,20,21,060,18,24,80,250,30,25,18,221,,28,02,087,21
141954.049  $GPGSV,4,4,14,29,30,282,26,32,01,235,
141954.050  $GPGLL,1333.20111,S,05215.72866,W,141953.00,A,A
141954.527  $GPRMC,141954.00,A,1333.20111,S,05215.72886,W,0.448,,221022,,,A
141954.561  $GPVTG,,T,,M,0.448,N,0.830,K,A
141954.627  $GPGGA,141954.00,1333.20111,S,05215.72886,W,1,10,0.93,389.6,M,-9.6,M,,
141954.694  $GPGSA,A,3,24,11,06,15,12,13,02,29,20,05,,,1.94,0.93,1.70
141954.760  $GPGSV,4,1,14,02,41,341,30,05,15,022,14,06,25,136,16,11,54,110,25
141954.827  $GPGSV,4,2,14,12,36,189,21,13,11,010,14,15,20,341,20,19,02,138,15
141954.894  $GPGSV,4,3,14,20,21,060,17,24,80,250,28,25,18,221,,28,02,087,20
141954.961  $GPGSV,4,4,14,29,30,282,26,32,01,235,
141955.017  $GPGLL,1333.20111,S,05215.72886,W,141954.00,A,A
141955.531  $GPRMC,141955.00,A,1333.20104,S,05215.72897,W,0.627,,221022,,,A
141955.563  $GPVTG,,T,,M,0.627,N,1.161,K,A
141955.631  $GPGGA,141955.00,1333.20104,S,05215.72897,W,1,10,0.93,390.3,M,-9.6,M,,
141955.698  $GPGSA,A,3,24,11,06,15,12,13,02,29,20,05,,,1.94,0.93,1.70
141955.764  $GPGSV,4,1,14,02,41,341,32,05,15,022,14,06,25,136,18,11,54,110,27
141955.831  $GPGSV,4,2,14,12,36,189,22,13,11,010,14,15,20,341,20,19,02,138,16
141955.898  $GPGSV,4,3,14,20,21,060,17,24,80,250,29,25,18,221,,28,02,087,20
141955.965  $GPGSV,4,4,14,29,30,282,27,32,01,235,
141956.020  $GPGLL,1333.20104,S,05215.72897,W,141955.00,A,A
141956.527  $GPRMC,141956.00,A,1333.20092,S,05215.72891,W,0.392,,221022,,,A
141956.561  $GPVTG,,T,,M,0.392,N,0.726,K,A
141956.627  $GPGGA,141956.00,1333.20092,S,05215.72891,W,1,10,0.93,391.0,M,-9.6,M,,
141956.693  $GPGSA,A,3,24,11,06,15,12,02,29,20,25,05,,,1.94,0.93,1.70
141956.761  $GPGSV,4,1,14,02,41,341,32,05,15,022,13,06,25,136,19,11,54,110,30
141956.827  $GPGSV,4,2,14,12,36,189,24,13,11,010,14,15,20,341,22,19,02,138,17
141956.927  $GPGSV,4,3,14,20,21,060,17,24,80,250,29,25,18,221,13,28,02,087,19
141956.961  $GPGSV,4,4,14,29,30,282,28,32,01,235,
141956.995  $GPGLL,1333.20092,S,05215.72891,W,141956.00,A,A
141957.531  $GPRMC,141957.00,A,1333.20067,S,05215.72913,W,0.716,,221022,,,A
141957.565  $GPVTG,,T,,M,0.716,N,1.326,K,A
141957.631  $GPGGA,141957.00,1333.20067,S,05215.72913,W,1,11,1.03,392.0,M,-9.6,M,,
141957.699  $GPGSA,A,3,24,11,06,15,12,13,02,29,20,25,05,,2.00,1.03,1.71
141957.765  $GPGSV,4,1,14,02,41,341,31,05,15,022,12,06,25,136,19,11,54,110,23
141957.832  $GPGSV,4,2,14,12,36,189,23,13,11,010,13,15,20,341,22,19,02,138,16
141957.932  $GPGSV,4,3,14,20,21,060,15,24,80,250,22,25,18,221,13,28,02,087,19
141957.965  $GPGSV,4,4,14,29,30,282,28,32,01,235,
141958.023  $GPGLL,1333.20067,S,05215.72913,W,141957.00,A,A
141958.529  $GPRMC,141958.00,A,1333.20055,S,05215.72918,W,0.311,,221022,,,A
141958.562  $GPVTG,,T,,M,0.311,N,0.576,K,A
141958.629  $GPGGA,141958.00,1333.20055,S,05215.72918,W,1,09,1.01,392.4,M,-9.6,M,,
141958.696  $GPGSA,A,3,24,11,06,15,12,13,02,29,05,,,,1.90,1.01,1.61
141958.762  $GPGSV,4,1,14,02,41,341,32,05,15,022,11,06,25,136,18,11,54,110,24
141958.829  $GPGSV,4,2,14,12,36,189,21,13,11,010,12,15,20,341,24,19,02,138,15
141958.896  $GPGSV,4,3,14,20,21,060,,24,80,250,24,25,18,221,,28,02,087,18
141958.962  $GPGSV,4,4,14,29,30,282,28,32,01,235,
141959.013  $GPGLL,1333.20055,S,05215.72918,W,141958.00,A,A
141959.527  $GPRMC,141959.00,A,1333.20054,S,05215.72933,W,0.753,,221022,,,A
141959.560  $GPVTG,,T,,M,0.753,N,1.395,K,A
141959.627  $GPGGA,141959.00,1333.20054,S,05215.72933,W,1,10,1.03,394.2,M,-9.6,M,,
141959.694  $GPGSA,A,3,24,11,06,15,12,13,02,29,25,05,,,2.00,1.03,1.71
141959.761  $GPGSV,4,1,14,02,41,341,31,05,15,022,12,06,25,136,17,11,54,110,24
141959.828  $GPGSV,4,2,14,12,36,189,20,13,11,010,13,15,20,341,24,19,02,138,15
141959.895  $GPGSV,4,3,14,20,21,060,,24,80,250,25,25,18,221,14,28,02,087,18
141959.961  $GPGSV,4,4,14,29,30,282,28,32,01,235,
142000.015  $GPGLL,1333.20054,S,05215.72933,W,141959.00,A,A
142000.526  $GPRMC,142000.00,A,1333.20042,S,05215.72930,W,0.292,,221022,,,A
142000.560  $GPVTG,,T,,M,0.292,N,0.541,K,A
142000.627  $GPGGA,142000.00,1333.20042,S,05215.72930,W,1,10,1.03,394.6,M,-9.6,M,,
142000.692  $GPGSA,A,3,24,11,06,15,12,13,02,29,20,05,,,2.00,1.03,1.71
142000.759  $GPGSV,4,1,14,02,41,341,32,05,15,022,15,06,25,136,17,11,54,110,25
142000.826  $GPGSV,4,2,14,12,36,189,20,13,11,010,14,15,20,341,24,19,02,138,15
142000.926  $GPGSV,4,3,14,20,21,060,16,24,80,250,26,25,18,221,14,28,02,087,18
142000.960  $GPGSV,4,4,14,29,30,282,29,32,01,235,
142000.993  $GPGLL,1333.20042,S,05215.72930,W,142000.00,A,A
142001.536  $GPRMC,142001.00,A,1333.20026,S,05215.72922,W,0.280,,221022,,,A
142001.570  $GPVTG,,T,,M,0.280,N,0.519,K,A
142001.636  $GPGGA,142001.00,1333.20026,S,05215.72922,W,1,10,1.03,394.7,M,-9.6,M,,
142001.703  $GPGSA,A,3,24,11,06,15,12,13,02,29,20,05,,,2.00,1.03,1.71
142001.770  $GPGSV,4,1,14,02,41,341,33,05,15,022,17,06,25,136,19,11,54,110,27
142001.837  $GPGSV,4,2,14,12,36,189,22,13,11,010,14,15,20,341,22,19,02,138,17
142001.936  $GPGSV,4,3,14,20,21,060,15,24,80,250,28,25,18,221,14,28,02,087,19
142001.970  $GPGSV,4,4,14,29,30,282,29,32,01,235,
142002.002  $GPGLL,1333.20026,S,05215.72922,W,142001.00,A,A
142002.526  $GPRMC,142002.00,A,1333.20007,S,05215.72906,W,0.043,,221022,,,A
142002.560  $GPVTG,,T,,M,0.043,N,0.080,K,A
142002.627  $GPGGA,142002.00,1333.20007,S,05215.72906,W,1,09,1.03,394.7,M,-9.6,M,,
142002.694  $GPGSA,A,3,24,11,06,15,12,02,29,25,05,,,,2.00,1.03,1.71
142002.760  $GPGSV,4,1,14,02,41,341,33,05,15,022,18,06,25,136,19,11,54,110,27
142002.827  $GPGSV,4,2,14,12,36,189,23,13,11,010,,15,20,341,21,19,02,138,17
142002.894  $GPGSV,4,3,14,20,21,060,,24,80,250,28,25,18,221,14,28,02,087,19
142002.961  $GPGSV,4,4,14,29,30,282,29,32,01,235,
142003.011  $GPGLL,1333.20007,S,05215.72906,W,142002.00,A,A
142003.527  $GPRMC,142003.00,A,1333.19995,S,05215.72908,W,0.511,,221022,,,A
142003.560  $GPVTG,,T,,M,0.511,N,0.947,K,A
142003.627  $GPGGA,142003.00,1333.19995,S,05215.72908,W,1,09,1.03,395.7,M,-9.6,M,,
142003.694  $GPGSA,A,3,24,11,06,15,12,02,29,25,05,,,,1.99,1.03,1.71
142003.760  $GPGSV,4,1,14,02,41,341,32,05,15,022,17,06,25,136,19,11,54,110,26
142003.827  $GPGSV,4,2,14,12,36,189,22,13,11,010,,15,20,341,21,19,02,138,15
142003.894  $GPGSV,4,3,14,20,21,060,,24,80,250,27,25,18,221,13,28,02,087,18
142003.961  $GPGSV,4,4,14,29,30,282,29,32,01,235,
142004.011  $GPGLL,1333.19995,S,05215.72908,W,142003.00,A,A
142004.529  $GPRMC,142004.00,A,1333.19979,S,05215.72912,W,0.550,,221022,,,A
142004.563  $GPVTG,,T,,M,0.550,N,1.019,K,A
142004.630  $GPGGA,142004.00,1333.19979,S,05215.72912,W,1,10,0.87,396.3,M,-9.6,M,,
142004.697  $GPGSA,A,3,24,11,06,15,12,02,29,20,25,05,,,1.72,0.87,1.48
142004.764  $GPGSV,4,1,14,02,41,341,31,05,15,022,17,06,25,136,18,11,54,110,25
142004.831  $GPGSV,4,2,14,12,36,189,22,13,11,010,,15,20,341,22,19,02,138,15
142004.898  $GPGSV,4,3,14,20,21,060,14,24,80,250,26,25,18,221,13,28,02,087,18
142004.964  $GPGSV,4,4,14,29,30,282,29,32,01,235,
142005.018  $GPGLL,1333.19979,S,05215.72912,W,142004.00,A,A
142005.525  $GPRMC,142005.00,A,1333.19971,S,05215.72903,W,0.517,,221022,,,A
142005.559  $GPVTG,,T,,M,0.517,N,0.957,K,A
142005.625  $GPGGA,142005.00,1333.19971,S,05215.72903,W,1,10,1.05,396.1,M,-9.6,M,,
142005.693  $GPGSA,A,3,24,11,06,15,12,02,29,20,25,05,,,1.92,1.05,1.60
142005.760  $GPGSV,4,1,14,02,41,341,32,05,15,022,16,06,25,136,26,11,54,111,26
142005.826  $GPGSV,4,2,14,12,36,189,21,13,11,010,,15,20,341,22,19,02,138,14
142005.893  $GPGSV,4,3,14,20,21,060,13,24,80,250,26,25,18,221,14,28,02,087,17
142005.959  $GPGSV,4,4,14,29,30,282,29,32,01,235,
142006.015  $GPGLL,1333.19971,S,05215.72903,W,142005.00,A,A
142006.526  $GPRMC,142006.00,A,1333.19948,S,05215.72882,W,0.297,,221022,,,A
142006.559  $GPVTG,,T,,M,0.297,N,0.550,K,A
142006.625  $GPGGA,142006.00,1333.19948,S,05215.72882,W,1,09,1.05,395.9,M,-9.6,M,,
142006.693  $GPGSA,A,3,24,11,15,12,02,29,20,25,05,,,,1.92,1.05,1.60
142006.760  $GPGSV,4,1,14,02,41,341,33,05,15,022,19,06,25,136,23,11,54,111,27
142006.825  $GPGSV,4,2,14,12,36,189,23,13,11,010,,15,20,341,24,19,02,138,15
142006.893  $GPGSV,4,3,14,20,21,060,18,24,80,250,27,25,18,221,14,28,02,087,17
142006.959  $GPGSV,4,4,14,29,30,282,31,32,01,235,
142007.012  $GPGLL,1333.19948,S,05215.72882,W,142006.00,A,A
142007.526  $GPRMC,142007.00,A,1333.19938,S,05215.72858,W,0.448,,221022,,,A
142007.559  $GPVTG,,T,,M,0.448,N,0.829,K,A
142007.626  $GPGGA,142007.00,1333.19938,S,05215.72858,W,1,09,1.05,396.0,M,-9.6,M,,
142007.694  $GPGSA,A,3,24,11,06,15,12,02,29,25,05,,,,1.92,1.05,1.60
142007.761  $GPGSV,4,1,14,02,41,341,32,05,15,022,21,06,25,136,19,11,54,111,26
142007.827  $GPGSV,4,2,14,12,36,189,22,13,10,010,,15,20,341,24,19,02,138,15
142007.894  $GPGSV,4,3,14,20,21,060,16,24,80,250,26,25,18,221,14,28,02,087,16
142007.961  $GPGSV,4,4,14,29,30,282,30,32,01,235,
142008.014  $GPGLL,1333.19938,S,05215.72858,W,142007.00,A,A
142008.531  $GPRMC,142008.00,A,1333.19918,S,05215.72839,W,0.423,,221022,,,A
142008.565  $GPVTG,,T,,M,0.423,N,0.784,K,A
142008.631  $GPGGA,142008.00,1333.19918,S,05215.72839,W,1,10,0.87,396.2,M,-9.6,M,,
142008.698  $GPGSA,A,3,24,11,06,15,12,02,29,20,25,05,,,1.72,0.87,1.48
142008.765  $GPGSV,4,1,14,02,41,341,32,05,15,022,21,06,25,136,19,11,54,111,26
142008.831  $GPGSV,4,2,14,12,36,189,21,13,10,010,,15,20,341,24,19,02,138,
142008.898  $GPGSV,4,3,14,20,21,060,15,24,80,250,26,25,18,221,15,28,02,087,17
142008.964  $GPGSV,4,4,14,29,30,282,30,32,01,235,
142009.018  $GPGLL,1333.19918,S,05215.72839,W,142008.00,A,A
142009.528  $GPRMC,142009.00,A,1333.19883,S,05215.72827,W,0.605,,221022,,,A
142009.563  $GPVTG,,T,,M,0.605,N,1.120,K,A
142009.630  $GPGGA,142009.00,1333.19883,S,05215.72827,W,1,10,0.87,396.9,M,-9.6,M,,
142009.696  $GPGSA,A,3,24,11,06,15,12,02,29,20,25,05,,,1.72,0.87,1.48
142009.763  $GPGSV,4,1,14,02,41,341,33,05,15,022,21,06,25,136,18,11,54,111,26
142009.829  $GPGSV,4,2,14,12,36,189,21,13,10,010,,15,20,342,23,19,02,138,
142009.897  $GPGSV,4,3,14,20,21,060,14,24,80,250,26,25,18,221,14,28,02,087,17
142009.963  $GPGSV,4,4,14,29,30,282,30,32,01,235,
142010.016  $GPGLL,1333.19883,S,05215.72827,W,142009.00,A,A
142010.532  $GPRMC,142010.00,A,1333.19863,S,05215.72798,W,0.225,,221022,,,A
142010.566  $GPVTG,,T,,M,0.225,N,0.417,K,A
142010.632  $GPGGA,142010.00,1333.19863,S,05215.72798,W,1,10,0.79,397.0,M,-9.6,M,,
142010.699  $GPGSA,A,3,24,11,06,15,12,02,29,20,25,05,,,1.65,0.79,1.44
142010.765  $GPGSV,4,1,14,02,41,341,33,05,15,022,23,06,25,136,19,11,54,111,27
142010.832  $GPGSV,4,2,14,12,36,189,23,13,10,010,,15,20,342,22,19,02,138,
142010.900  $GPGSV,4,3,14,20,21,060,15,24,80,250,27,25,18,221,14,28,02,087,17
142010.967  $GPGSV,4,4,14,29,30,282,31,32,01,235,
142011.018  $GPGLL,1333.19863,S,05215.72798,W,142010.00,A,A
142011.534  $GPRMC,142011.00,A,1333.19851,S,05215.72779,W,0.184,,221022,,,A
142011.566  $GPVTG,,T,,M,0.184,N,0.341,K,A
142011.634  $GPGGA,142011.00,1333.19851,S,05215.72779,W,1,11,0.79,396.9,M,-9.6,M,,
142011.701  $GPGSA,A,3,24,11,06,15,12,13,02,29,20,25,05,,1.65,0.79,1.44
142011.768  $GPGSV,4,1,14,02,41,341,33,05,15,022,23,06,25,136,21,11,54,111,27
142011.834  $GPGSV,4,2,14,12,36,189,24,13,10,010,19,15,20,342,21,19,02,138,
142011.934  $GPGSV,4,3,14,20,21,060,15,24,80,250,27,25,18,221,15,28,02,087,17
142011.968  $GPGSV,4,4,14,29,30,282,30,32,01,235,
142012.000  $GPGLL,1333.19851,S,05215.72779,W,142011.00,A,A
142012.532  $GPRMC,142012.00,A,1333.19830,S,05215.72772,W,0.269,,221022,,,A
142012.565  $GPVTG,,T,,M,0.269,N,0.497,K,A
142012.631  $GPGGA,142012.00,1333.19830,S,05215.72772,W,1,10,0.79,397.0,M,-9.6,M,,
142012.699  $GPGSA,A,3,24,11,06,15,12,02,29,20,25,05,,,1.65,0.79,1.44
142012.764  $GPGSV,4,1,14,02,41,341,32,05,15,022,21,06,25,136,21,11,54,111,26
142012.831  $GPGSV,4,2,14,12,36,189,23,13,10,010,17,15,20,342,22,19,02,138,
142012.898  $GPGSV,4,3,14,20,21,060,16,24,80,250,28,25,18,221,16,28,02,087,17
142012.966  $GPGSV,4,4,14,29,30,282,29,32,01,235,
142013.020  $GPGLL,1333.19830,S,05215.72772,W,142012.00,A,A
142013.532  $GPRMC,142013.00,A,1333.19810,S,05215.72760,W,0.346,,221022,,,A
142013.566  $GPVTG,,T,,M,0.346,N,0.641,K,A
142013.632  $GPGGA,142013.00,1333.19810,S,05215.72760,W,1,11,0.79,397.4,M,-9.6,M,,
142013.699  $GPGSA,A,3,24,11,06,15,12,13,02,29,20,25,05,,1.65,0.79,1.44
142013.765  $GPGSV,4,1,14,02,41,341,31,05,15,022,20,06,25,136,21,11,54,111,26
142013.832  $GPGSV,4,2,14,12,36,189,23,13,10,010,12,15,20,342,23,19,02,138,
142013.933  $GPGSV,4,3,14,20,21,060,17,24,80,250,29,25,18,221,17,28,02,087,17
142013.966  $GPGSV,4,4,14,29,30,282,29,32,01,235,
142014.000  $GPGLL,1333.19810,S,05215.72760,W,142013.00,A,A
142014.528  $GPRMC,142014.00,A,1333.19793,S,05215.72763,W,0.325,,221022,,,A
142014.562  $GPVTG,,T,,M,0.325,N,0.601,K,A
142014.629  $GPGGA,142014.00,1333.19793,S,05215.72763,W,1,10,0.79,398.1,M,-9.6,M,,
142014.696  $GPGSA,A,3,24,11,06,15,12,02,29,20,25,05,,,1.65,0.79,1.44
142014.763  $GPGSV,4,1,14,02,41,341,32,05,15,022,21,06,25,136,21,11,54,111,26
142014.829  $GPGSV,4,2,14,12,36,189,24,13,10,010,,15,20,342,23,19,02,138,
142014.896  $GPGSV,4,3,14,20,21,060,17,24,80,250,29,25,18,221,18,28,02,087,17
142014.963  $GPGSV,4,4,14,29,30,282,29,32,01,235,
142015.016  $GPGLL,1333.19793,S,05215.72763,W,142014.00,A,A
142015.531  $GPRMC,142015.00,A,1333.19777,S,05215.72770,W,0.442,,221022,,,A
142015.565  $GPVTG,,T,,M,0.442,N,0.818,K,A
142015.632  $GPGGA,142015.00,1333.19777,S,05215.72770,W,1,10,0.79,398.3,M,-9.6,M,,
142015.698  $GPGSA,A,3,24,11,06,15,12,02,29,20,25,05,,,1.65,0.79,1.44
142015.766  $GPGSV,4,1,14,02,41,341,31,05,15,022,21,06,25,136,20,11,54,111,25
142015.831  $GPGSV,4,2,14,12,36,189,23,13,10,010,,15,20,342,24,19,02,138,
142015.899  $GPGSV,4,3,14,20,21,060,16,24,80,250,29,25,18,221,17,28,02,087,17
142015.966  $GPGSV,4,4,14,29,30,282,28,32,01,235,
142016.018  $GPGLL,1333.19777,S,05215.72770,W,142015.00,A,A
142016.530  $GPRMC,142016.00,A,1333.19743,S,05215.72760,W,1.045,,221022,,,A
142016.563  $GPVTG,,T,,M,1.045,N,1.936,K,A
142016.631  $GPGGA,142016.00,1333.19743,S,05215.72760,W,1,10,0.79,399.6,M,-9.6,M,,
142016.697  $GPGSA,A,3,24,11,06,15,12,02,29,20,25,05,,,1.65,0.79,1.44
142016.764  $GPGSV,4,1,14,02,41,341,32,05,15,022,21,06,25,136,20,11,54,111,25
142016.830  $GPGSV,4,2,14,12,36,189,22,13,10,010,,15,20,342,24,19,02,138,
142016.897  $GPGSV,4,3,14,20,21,060,13,24,80,250,29,25,18,221,18,28,02,087,16
142016.965  $GPGSV,4,4,14,29,30,282,29,32,01,235,
142017.017  $GPGLL,1333.19743,S,05215.72760,W,142016.00,A,A
142017.532  $GPRMC,142017.00,A,1333.19722,S,05215.72738,W,0.930,,221022,,,A
142017.565  $GPVTG,,T,,M,0.930,N,1.722,K,A
142017.632  $GPGGA,142017.00,1333.19722,S,05215.72738,W,1,10,0.79,399.6,M,-9.6,M,,
142017.698  $GPGSA,A,3,24,11,06,15,12,02,29,20,25,05,,,1.65,0.79,1.44
142017.765  $GPGSV,4,1,14,02,41,341,32,05,15,022,21,06,25,136,19,11,54,111,25
142017.833  $GPGSV,4,2,14,12,36,189,22,13,10,010,,15,20,342,24,19,02,138,15
142017.899  $GPGSV,4,3,14,20,21,060,13,24,80,250,29,25,18,221,18,28,02,087,16
142017.965  $GPGSV,4,4,14,29,30,282,28,32,01,235,
142018.020  $GPGLL,1333.19722,S,05215.72738,W,142017.00,A,A
142018.530  $GPRMC,142018.00,A,1333.19723,S,05215.72732,W,0.195,,221022,,,A
142018.564  $GPVTG,,T,,M,0.195,N,0.361,K,A
142018.630  $GPGGA,142018.00,1333.19723,S,05215.72732,W,1,10,0.79,400.0,M,-9.6,M,,
142018.697  $GPGSA,A,3,24,11,06,15,12,02,29,20,25,05,,,1.65,0.79,1.44
142018.763  $GPGSV,4,1,14,02,41,341,31,05,15,022,21,06,25,136,19,11,54,111,24
142018.831  $GPGSV,4,2,14,12,36,189,21,13,10,010,,15,20,342,26,19,02,138,14
142018.896  $GPGSV,4,3,14,20,21,060,15,24,80,253,30,25,18,221,18,28,02,087,16
142018.964  $GPGSV,4,4,14,29,30,282,28,32,01,235,
142019.019  $GPGLL,1333.19723,S,05215.72732,W,142018.00,A,A
142019.535  $GPRMC,142019.00,A,1333.19717,S,05215.72743,W,0.566,,221022,,,A
142019.568  $GPVTG,,T,,M,0.566,N,1.047,K,A
142019.636  $GPGGA,142019.00,1333.19717,S,05215.72743,W,1,10,0.79,400.8,M,-9.6,M,,
142019.702  $GPGSA,A,3,24,11,06,15,12,02,29,20,25,05,,,1.65,0.79,1.44
142019.770  $GPGSV,4,1,14,02,41,341,32,05,15,022,22,06,25,136,20,11,54,111,25
142019.836  $GPGSV,4,2,14,12,36,189,21,13,10,010,,15,20,342,26,19,02,138,13
142019.904  $GPGSV,4,3,14,20,21,060,14,24,80,253,30,25,18,220,18,28,02,087,16
142019.969  $GPGSV,4,4,14,29,30,282,29,32,01,235,
142020.024  $GPGLL,1333.19717,S,05215.72743,W,142019.00,A,A
142020.531  $GPRMC,142020.00,A,1333.19706,S,05215.72741,W,0.117,,221022,,,A
142020.564  $GPVTG,,T,,M,0.117,N,0.217,K,A
142020.632  $GPGGA,142020.00,1333.19706,S,05215.72741,W,1,10,0.79,401.3,M,-9.6,M,,
142020.698  $GPGSA,A,3,24,11,06,15,12,02,29,20,25,05,,,1.65,0.79,1.44
142020.765  $GPGSV,4,1,14,02,41,341,32,05,15,022,23,06,25,136,20,11,54,111,25
142020.831  $GPGSV,4,2,14,12,36,189,21,13,10,010,,15,20,342,26,19,02,138,13
142020.899  $GPGSV,4,3,14,20,21,060,13,24,80,253,29,25,18,220,17,28,02,087,17
142020.965  $GPGSV,4,4,14,29,30,282,29,32,01,235,
142021.020  $GPGLL,1333.19706,S,05215.72741,W,142020.00,A,A
142021.532  $GPRMC,142021.00,A,1333.19695,S,05215.72748,W,0.378,,221022,,,A
142021.566  $GPVTG,,T,,M,0.378,N,0.700,K,A
142021.633  $GPGGA,142021.00,1333.19695,S,05215.72748,W,1,11,0.79,402.1,M,-9.6,M,,
142021.699  $GPGSA,A,3,24,11,06,15,12,13,02,29,20,25,05,,1.65,0.79,1.44
142021.766  $GPGSV,4,1,14,02,41,341,32,05,15,022,25,06,25,136,19,11,54,111,25
142021.834  $GPGSV,4,2,14,12,36,189,21,13,10,010,15,15,20,342,25,19,02,138,14
142021.934  $GPGSV,4,3,14,20,21,060,12,24,80,253,30,25,18,220,16,28,02,087,16
142021.967  $GPGSV,4,4,14,29,30,282,29,32,01,235,
142022.025  $GPGLL,1333.19695,S,05215.72748,W,142021.00,A,A
142022.529  $GPRMC,142022.00,A,1333.19683,S,05215.72754,W,0.549,,221022,,,A
142022.561  $GPVTG,,T,,M,0.549,N,1.017,K,A
142022.629  $GPGGA,142022.00,1333.19683,S,05215.72754,W,1,10,0.87,402.6,M,-9.6,M,,
142022.695  $GPGSA,A,3,24,11,06,15,12,02,29,20,25,05,,,1.72,0.87,1.48
142022.762  $GPGSV,4,1,14,02,41,341,33,05,15,022,25,06,25,136,18,11,54,111,26
142022.829  $GPGSV,4,2,14,12,36,189,22,13,10,010,15,15,20,342,24,19,02,138,14
142022.929  $GPGSV,4,3,14,20,21,060,17,24,80,253,29,25,18,220,16,28,02,086,15
142022.963  $GPGSV,4,4,14,29,30,282,30,32,01,235,
142022.996  $GPGLL,1333.19683,S,05215.72754,W,142022.00,A,A
142023.528  $GPRMC,142023.00,A,1333.19670,S,05215.72745,W,0.377,,221022,,,A
142023.563  $GPVTG,,T,,M,0.377,N,0.699,K,A
142023.630  $GPGGA,142023.00,1333.19670,S,05215.72745,W,1,10,0.87,402.5,M,-9.6,M,,
142023.696  $GPGSA,A,3,24,11,06,15,12,02,29,20,25,05,,,1.72,0.87,1.48
142023.763  $GPGSV,4,1,14,02,41,341,33,05,15,022,27,06,25,136,18,11,54,111,27
142023.830  $GPGSV,4,2,14,12,36,189,22,13,10,010,,15,20,342,23,19,02,138,12
142023.897  $GPGSV,4,3,14,20,21,060,19,24,80,253,29,25,18,220,14,28,02,086,14
142023.963  $GPGSV,4,4,14,29,30,282,32,32,01,235,
142024.018  $GPGLL,1333.19670,S,05215.72745,W,142023.00,A,A
142024.531  $GPRMC,142024.00,A,1333.19664,S,05215.72730,W,0.033,,221022,,,A
142024.564  $GPVTG,,T,,M,0.033,N,0.061,K,A
142024.632  $GPGGA,142024.00,1333.19664,S,05215.72730,W,1,11,0.87,402.7,M,-9.6,M,,
142024.699  $GPGSA,A,3,24,11,06,15,12,13,02,29,20,25,05,,1.72,0.87,1.48
142024.764  $GPGSV,4,1,14,02,41,341,34,05,15,022,27,06,25,136,18,11,54,111,27
142024.831  $GPGSV,4,2,14,12,36,189,23,13,10,010,17,15,20,342,23,19,02,138,09
142024.932  $GPGSV,4,3,14,20,21,060,20,24,80,253,29,25,18,220,14,28,02,086,16
142024.965  $GPGSV,4,4,14,29,30,282,32,32,01,235,
142025.023  $GPGLL,1333.19664,S,05215.72730,W,142024.00,A,A
142025.534  $GPRMC,142025.00,A,1333.19655,S,05215.72705,W,0.065,,221022,,,A
142025.568  $GPVTG,,T,,M,0.065,N,0.120,K,A
142025.635  $GPGGA,142025.00,1333.19655,S,05215.72705,W,1,11,0.87,403.0,M,-9.6,M,,
142025.702  $GPGSA,A,3,24,11,06,15,12,13,02,29,20,25,05,,1.72,0.87,1.48
142025.769  $GPGSV,4,1,14,02,41,341,34,05,15,022,27,06,25,136,18,11,54,111,28
142025.836  $GPGSV,4,2,14,12,36,189,24,13,10,010,17,15,20,342,22,19,02,138,12
142025.936  $GPGSV,4,3,14,20,21,060,21,24,80,253,29,25,18,220,15,28,02,086,16
142025.968  $GPGSV,4,4,14,29,30,282,32,32,01,235,
142026.028  $GPGLL,1333.19655,S,05215.72705,W,142025.00,A,A
142026.531  $GPRMC,142026.00,A,1333.19652,S,05215.72683,W,0.240,,221022,,,A
142026.564  $GPVTG,,T,,M,0.240,N,0.444,K,A
142026.630  $GPGGA,142026.00,1333.19652,S,05215.72683,W,1,10,0.87,403.2,M,-9.6,M,,
142026.697  $GPGSA,A,3,24,11,06,15,12,02,29,20,25,05,,,1.72,0.87,1.48
142026.764  $GPGSV,4,1,14,02,41,341,34,05,15,022,27,06,25,136,19,11,54,111,27
142026.831  $GPGSV,4,2,14,12,36,189,24,13,10,010,14,15,20,342,22,19,02,138,14
142026.930  $GPGSV,4,3,14,20,21,060,21,24,80,253,28,25,18,220,15,28,02,086,16
142026.964  $GPGSV,4,4,14,29,30,282,32,32,01,236,
142026.998  $GPGLL,1333.19652,S,05215.72683,W,142026.00,A,A
142027.530  $GPRMC,142027.00,A,1333.19646,S,05215.72659,W,0.536,,221022,,,A
142027.563  $GPVTG,,T,,M,0.536,N,0.993,K,A
142027.630  $GPGGA,142027.00,1333.19646,S,05215.72659,W,1,10,0.87,403.2,M,-9.6,M,,
142027.696  $GPGSA,A,3,24,11,06,15,12,02,29,20,25,05,,,1.72,0.87,1.48
142027.763  $GPGSV,4,1,14,02,41,341,34,05,15,022,27,06,25,136,19,11,54,111,28
142027.830  $GPGSV,4,2,14,12,36,189,24,13,10,010,15,15,20,342,21,19,02,138,15
142027.931  $GPGSV,4,3,14,20,21,060,21,24,80,253,29,25,18,220,16,28,02,086,16
142027.964  $GPGSV,4,4,14,29,30,282,33,32,01,236,
142027.997  $GPGLL,1333.19646,S,05215.72659,W,142027.00,A,A
142028.529  $GPRMC,142028.00,A,1333.19648,S,05215.72634,W,0.065,,221022,,,A
142028.564  $GPVTG,,T,,M,0.065,N,0.120,K,A
142028.630  $GPGGA,142028.00,1333.19648,S,05215.72634,W,1,11,0.87,403.0,M,-9.6,M,,
142028.697  $GPGSA,A,3,24,11,06,15,12,13,02,29,20,25,05,,1.72,0.87,1.48
142028.763  $GPGSV,4,1,14,02,41,341,33,05,15,022,27,06,25,136,18,11,54,111,28
142028.831  $GPGSV,4,2,14,12,36,189,22,13,10,010,15,15,20,342,21,19,02,138,15
142028.931  $GPGSV,4,3,14,20,21,060,21,24,80,253,29,25,18,220,17,28,02,086,16
142028.964  $GPGSV,4,4,14,29,30,282,32,32,01,236,
142029.022  $GPGLL,1333.19648,S,05215.72634,W,142028.00,A,A
142029.532  $GPRMC,142029.00,A,1333.19642,S,05215.72621,W,0.336,,221022,,,A
142029.565  $GPVTG,,T,,M,0.336,N,0.622,K,A
142029.633  $GPGGA,142029.00,1333.19642,S,05215.72621,W,1,11,0.87,402.9,M,-9.6,M,,
142029.698  $GPGSA,A,3,24,11,06,15,12,13,02,29,20,25,05,,1.72,0.87,1.48
142029.765  $GPGSV,4,1,14,02,41,341,33,05,15,022,27,06,25,136,17,11,54,111,28
142029.832  $GPGSV,4,2,14,12,36,189,22,13,10,010,15,15,20,342,21,19,02,138,13
142029.931  $GPGSV,4,3,14,20,21,060,20,24,80,253,29,25,18,220,16,28,02,086,16
142029.966  $GPGSV,4,4,14,29,30,282,32,32,01,236,
142030.026  $GPGLL,1333.19642,S,05215.72621,W,142029.00,A,A
142030.534  $GPRMC,142030.00,A,1333.19656,S,05215.72595,W,0.186,,221022,,,A
142030.568  $GPVTG,,T,,M,0.186,N,0.345,K,A
142030.635  $GPGGA,142030.00,1333.19656,S,05215.72595,W,1,11,0.87,402.2,M,-9.6,M,,
142030.701  $GPGSA,A,3,24,11,06,15,12,13,02,29,20,25,05,,1.72,0.87,1.48
142030.768  $GPGSV,4,1,14,02,41,341,34,05,15,022,27,06,25,136,17,11,54,111,28
142030.835  $GPGSV,4,2,14,12,36,189,22,13,10,010,15,15,20,342,21,19,02,138,13
142030.935  $GPGSV,4,3,14,20,21,060,20,24,80,253,29,25,18,220,17,28,02,086,17
142030.968  $GPGSV,4,4,14,29,30,282,32,32,01,236,
142031.027  $GPGLL,1333.19656,S,05215.72595,W,142030.00,A,A
142031.630  $GPRMC,142031.00,A,1333.19658,S,05215.72577,W,0.194,,221022,,,A
142031.630  $GPVTG,,T,,M,0.194,N,0.359,K,A
142031.640  $GPGGA,142031.00,1333.19658,S,05215.72577,W,1,11,0.87,402.0,M,-9.6,M,,
142031.705  $GPGSA,A,3,24,11,06,15,12,13,02,29,20,25,05,,1.72,0.87,1.48
142031.771  $GPGSV,4,1,14,02,41,341,34,05,15,022,27,06,25,136,17,11,54,111,28
142031.839  $GPGSV,4,2,14,12,36,189,22,13,10,010,16,15,20,342,21,19,02,138,15
142031.938  $GPGSV,4,3,14,20,21,060,20,24,80,253,29,25,18,220,18,28,02,086,16
142031.973  $GPGSV,4,4,14,29,30,282,32,32,01,236,
142032.031  $GPGLL,1333.19658,S,05215.72577,W,142031.00,A,A
142032.530  $GPRMC,142032.00,A,1333.19653,S,05215.72554,W,0.244,,221022,,,A
142032.563  $GPVTG,,T,,M,0.244,N,0.452,K,A
142032.630  $GPGGA,142032.00,1333.19653,S,05215.72554,W,1,11,0.79,401.8,M,-9.6,M,,
142032.697  $GPGSA,A,3,24,11,06,15,12,13,02,29,20,25,05,,1.65,0.79,1.44
142032.763  $GPGSV,4,1,14,02,41,341,34,05,15,022,27,06,25,136,18,11,54,111,28
142032.830  $GPGSV,4,2,14,12,36,189,22,13,10,010,17,15,20,342,22,19,02,138,13
142032.931  $GPGSV,4,3,14,20,21,060,20,24,80,253,30,25,18,220,19,28,02,086,16
142032.963  $GPGSV,4,4,14,29,30,282,32,32,01,236,
142033.022  $GPGLL,1333.19653,S,05215.72554,W,142032.00,A,A
142033.532  $GPRMC,142033.00,A,1333.19650,S,05215.72537,W,0.253,,221022,,,A
142033.566  $GPVTG,,T,,M,0.253,N,0.468,K,A
142033.631  $GPGGA,142033.00,1333.19650,S,05215.72537,W,1,11,0.87,401.4,M,-9.6,M,,
142033.698  $GPGSA,A,3,24,11,06,15,12,13,02,29,20,25,05,,1.72,0.87,1.48
142033.765  $GPGSV,4,1,14,02,41,341,34,05,15,022,27,06,25,136,17,11,54,111,28
142033.833  $GPGSV,4,2,14,12,36,189,23,13,10,010,15,15,20,342,22,19,02,138,14
142033.933  $GPGSV,4,3,14,20,21,060,19,24,80,253,31,25,18,220,19,28,02,086,16
142033.966  $GPGSV,4,4,14,29,30,282,33,32,01,236,
142034.024  $GPGLL,1333.19650,S,05215.72537,W,142033.00,A,A
142034.533  $GPRMC,142034.00,A,1333.19644,S,05215.72516,W,0.065,,221022,,,A
142034.568  $GPVTG,,T,,M,0.065,N,0.120,K,A
142034.633  $GPGGA,142034.00,1333.19644,S,05215.72516,W,1,11,0.79,401.2,M,-9.6,M,,
142034.699  $GPGSA,A,3,24,11,06,15,12,13,02,29,20,25,05,,1.65,0.79,1.44
142034.766  $GPGSV,4,1,14,02,41,341,34,05,15,022,27,06,25,136,17,11,54,111,28
142034.834  $GPGSV,4,2,14,12,36,189,22,13,10,010,15,15,20,342,22,19,02,138,12
142034.934  $GPGSV,4,3,14,20,21,060,18,24,80,253,30,25,18,220,19,28,02,086,17
142034.968  $GPGSV,4,4,14,29,30,282,32,32,01,236,
142035.026  $GPGLL,1333.19644,S,05215.72516,W,142034.00,A,A
142035.532  $GPRMC,142035.00,A,1333.19641,S,05215.72504,W,0.324,,221022,,,A
142035.566  $GPVTG,,T,,M,0.324,N,0.600,K,A
142035.632  $GPGGA,142035.00,1333.19641,S,05215.72504,W,1,11,0.87,401.1,M,-9.6,M,,
142035.699  $GPGSA,A,3,24,11,06,15,12,13,02,29,20,25,05,,1.72,0.87,1.48
142035.765  $GPGSV,4,1,14,02,41,341,34,05,15,022,27,06,25,136,17,11,54,111,28
142035.833  $GPGSV,4,2,14,12,36,189,22,13,10,010,15,15,20,342,23,19,02,138,11
142035.932  $GPGSV,4,3,14,20,21,060,18,24,80,253,30,25,18,220,18,28,02,086,16
142035.966  $GPGSV,4,4,14,29,30,282,32,32,01,236,
142036.024  $GPGLL,1333.19641,S,05215.72504,W,142035.00,A,A
142036.533  $GPRMC,142036.00,A,1333.19638,S,05215.72489,W,0.442,,221022,,,A
142036.565  $GPVTG,,T,,M,0.442,N,0.818,K,A
142036.633  $GPGGA,142036.00,1333.19638,S,05215.72489,W,1,11,0.79,400.8,M,-9.6,M,,
142036.700  $GPGSA,A,3,24,11,06,15,12,13,02,29,20,25,05,,1.65,0.79,1.44
142036.766  $GPGSV,4,1,14,02,41,341,34,05,15,022,27,06,25,136,17,11,54,111,28
142036.832  $GPGSV,4,2,14,12,36,189,22,13,10,010,15,15,20,342,23,19,02,138,10
142036.934  $GPGSV,4,3,14,20,21,060,16,24,80,253,31,25,18,220,17,28,02,086,16
142036.967  $GPGSV,4,4,14,29,30,282,32,32,01,236,
142037.025  $GPGLL,1333.19638,S,05215.72489,W,142036.00,A,A
142037.533  $GPRMC,142037.00,A,1333.19633,S,05215.72475,W,0.045,,221022,,,A
142037.565  $GPVTG,,T,,M,0.045,N,0.083,K,A
142037.633  $GPGGA,142037.00,1333.19633,S,05215.72475,W,1,11,0.79,400.5,M,-9.6,M,,
142037.699  $GPGSA,A,3,24,11,06,15,12,13,02,29,20,25,05,,1.65,0.79,1.44
142037.767  $GPGSV,4,1,14,02,41,341,34,05,15,022,27,06,25,136,18,11,54,111,28
142037.833  $GPGSV,4,2,14,12,36,189,22,13,10,010,14,15,20,342,24,19,02,138,10
142037.933  $GPGSV,4,3,14,20,21,060,16,24,80,253,32,25,18,220,17,28,02,086,17
142037.967  $GPGSV,4,4,14,29,30,282,33,32,01,236,
142038.026  $GPGLL,1333.19633,S,05215.72475,W,142037.00,A,A
142038.534  $GPRMC,142038.00,A,1333.19628,S,05215.72470,W,0.304,,221022,,,A
142038.567  $GPVTG,,T,,M,0.304,N,0.563,K,A
142038.634  $GPGGA,142038.00,1333.19628,S,05215.72470,W,1,11,0.79,400.0,M,-9.6,M,,
142038.701  $GPGSA,A,3,24,11,06,15,12,13,02,29,20,25,05,,1.65,0.79,1.44
142038.767  $GPGSV,4,1,14,02,41,341,35,05,15,022,27,06,25,136,20,11,54,111,29
142038.834  $GPGSV,4,2,14,12,36,189,23,13,10,010,15,15,20,342,24,19,02,138,09
142038.934  $GPGSV,4,3,14,20,21,060,19,24,80,253,33,25,18,220,18,28,02,086,19
142038.968  $GPGSV,4,4,14,29,30,282,33,32,01,236,
142039.026  $GPGLL,1333.19628,S,05215.72470,W,142038.00,A,A
142039.533  $GPRMC,142039.00,A,1333.19616,S,05215.72470,W,0.122,,221022,,,A
142039.567  $GPVTG,,T,,M,0.122,N,0.225,K,A
142039.632  $GPGGA,142039.00,1333.19616,S,05215.72470,W,1,11,0.87,400.4,M,-9.6,M,,
142039.700  $GPGSA,A,3,24,11,06,15,12,13,02,29,20,25,05,,1.72,0.87,1.48
142039.767  $GPGSV,4,1,14,02,41,341,34,05,15,022,27,06,25,136,20,11,54,111,29
142039.833  $GPGSV,4,2,14,12,36,189,23,13,10,010,16,15,20,342,24,19,02,138,09
142039.934  $GPGSV,4,3,14,20,21,060,19,24,80,253,32,25,18,220,19,28,02,086,19
142039.967  $GPGSV,4,4,14,29,30,282,33,32,01,236,
142040.025  $GPGLL,1333.19616,S,05215.72470,W,142039.00,A,A
142040.531  $GPRMC,142040.00,A,1333.19609,S,05215.72466,W,0.271,,221022,,,A
142040.564  $GPVTG,,T,,M,0.271,N,0.503,K,A
142040.630  $GPGGA,142040.00,1333.19609,S,05215.72466,W,1,11,0.87,400.5,M,-9.6,M,,
142040.697  $GPGSA,A,3,24,11,06,15,12,13,02,29,20,25,05,,1.72,0.87,1.48
142040.764  $GPGSV,4,1,14,02,41,341,35,05,15,022,26,06,25,136,20,11,54,111,29
142040.830  $GPGSV,4,2,14,12,36,189,22,13,10,010,17,15,20,342,25,19,02,138,09
142040.931  $GPGSV,4,3,14,20,21,060,19,24,80,253,32,25,18,220,19,28,02,086,19
142040.964  $GPGSV,4,4,14,29,30,282,33,32,01,236,
142041.022  $GPGLL,1333.19609,S,05215.72466,W,142040.00,A,A
142041.532  $GPRMC,142041.00,A,1333.19605,S,05215.72458,W,0.135,,221022,,,A
142041.566  $GPVTG,,T,,M,0.135,N,0.249,K,A
142041.632  $GPGGA,142041.00,1333.19605,S,05215.72458,W,1,11,0.87,400.6,M,-9.6,M,,
142041.700  $GPGSA,A,3,24,11,06,15,12,13,02,29,20,25,05,,1.72,0.87,1.48
142041.765  $GPGSV,4,1,14,02,41,341,34,05,15,022,25,06,25,136,20,11,54,111,29
142041.833  $GPGSV,4,2,14,12,36,189,23,13,10,010,17,15,20,342,24,19,02,138,09
142041.932  $GPGSV,4,3,14,20,21,060,18,24,80,253,32,25,18,220,19,28,02,086,19
142041.966  $GPGSV,4,4,14,29,30,282,33,32,01,236,
142042.024  $GPGLL,1333.19605,S,05215.72458,W,142041.00,A,A
142042.533  $GPRMC,142042.00,A,1333.19605,S,05215.72447,W,0.529,,221022,,,A
142042.567  $GPVTG,,T,,M,0.529,N,0.981,K,A
142042.633  $GPGGA,142042.00,1333.19605,S,05215.72447,W,1,11,0.79,400.5,M,-9.6,M,,
142042.700  $GPGSA,A,3,24,11,06,15,12,13,02,29,20,25,05,,1.65,0.79,1.44
142042.767  $GPGSV,4,1,14,02,41,341,34,05,15,022,25,06,25,136,20,11,54,111,29
142042.834  $GPGSV,4,2,14,12,36,189,23,13,10,010,17,15,20,342,24,19,02,138,20
142042.935  $GPGSV,4,3,14,20,21,060,19,24,80,253,32,25,18,220,19,28,02,086,18
142042.967  $GPGSV,4,4,14,29,30,282,33,32,01,236,
142043.026  $GPGLL,1333.19605,S,05215.72447,W,142042.00,A,A
142043.534  $GPRMC,142043.00,A,1333.19610,S,05215.72427,W,0.624,,221022,,,A
142043.567  $GPVTG,,T,,M,0.624,N,1.156,K,A
142043.633  $GPGGA,142043.00,1333.19610,S,05215.72427,W,1,11,0.79,399.9,M,-9.6,M,,
142043.700  $GPGSA,A,3,24,11,06,15,12,13,02,29,20,25,05,,1.65,0.79,1.44
142043.767  $GPGSV,4,1,14,02,41,341,34,05,15,022,24,06,25,136,19,11,54,111,29
142043.834  $GPGSV,4,2,14,12,36,189,23,13,10,010,16,15,20,342,24,19,02,138,20
142043.934  $GPGSV,4,3,14,20,21,060,19,24,80,253,32,25,18,220,19,28,02,086,17
142043.967  $GPGSV,4,4,14,29,30,282,33,32,01,236,
142044.027  $GPGLL,1333.19610,S,05215.72427,W,142043.00,A,A
142044.532  $GPRMC,142044.00,A,1333.19600,S,05215.72428,W,0.147,,221022,,,A
142044.566  $GPVTG,,T,,M,0.147,N,0.272,K,A
142044.632  $GPGGA,142044.00,1333.19600,S,05215.72428,W,1,11,0.87,400.2,M,-9.6,M,,
142044.699  $GPGSA,A,3,24,11,06,15,12,13,02,29,20,25,05,,1.72,0.87,1.48
142044.765  $GPGSV,4,1,14,02,41,341,32,05,15,022,22,06,25,136,18,11,54,111,28
142044.833  $GPGSV,4,2,14,12,36,189,22,13,10,010,16,15,20,342,24,19,02,138,17
142044.932  $GPGSV,4,3,14,20,21,060,20,24,80,253,30,25,18,220,19,28,02,086,15
142044.965  $GPGSV,4,4,14,29,30,282,32,32,01,236,
142045.023  $GPGLL,1333.19600,S,05215.72428,W,142044.00,A,A
142045.530  $GPRMC,142045.00,A,1333.19600,S,05215.72419,W,0.102,,221022,,,A
142045.564  $GPVTG,,T,,M,0.102,N,0.188,K,A
142045.631  $GPGGA,142045.00,1333.19600,S,05215.72419,W,1,11,0.87,399.9,M,-9.6,M,,
142045.697  $GPGSA,A,3,24,11,06,15,12,13,02,29,20,25,05,,1.72,0.87,1.48
142045.764  $GPGSV,4,1,14,02,41,341,32,05,15,022,20,06,25,136,17,11,54,111,28
142045.831  $GPGSV,4,2,14,12,36,189,21,13,10,010,17,15,20,342,23,19,02,138,16
142045.931  $GPGSV,4,3,14,20,21,060,21,24,80,253,31,25,18,220,19,28,02,086,15
142045.965  $GPGSV,4,4,14,29,30,282,32,32,01,236,
142046.024  $GPGLL,1333.19600,S,05215.72419,W,142045.00,A,A
142046.530  $GPRMC,142046.00,A,1333.19609,S,05215.72393,W,0.621,,221022,,,A
142046.564  $GPVTG,,T,,M,0.621,N,1.150,K,A
142046.630  $GPGGA,142046.00,1333.19609,S,05215.72393,W,1,11,0.87,399.3,M,-9.6,M,,
142046.698  $GPGSA,A,3,24,11,06,15,12,13,02,29,20,25,05,,1.72,0.87,1.48
142046.763  $GPGSV,4,1,14,02,41,341,33,05,15,022,19,06,25,136,18,11,54,111,28
142046.830  $GPGSV,4,2,14,12,36,189,21,13,10,010,17,15,20,342,23,19,02,138,16
142046.931  $GPGSV,4,3,14,20,21,060,21,24,80,253,31,25,18,220,19,28,02,086,14
142046.964  $GPGSV,4,4,14,29,30,282,32,32,01,236,
142047.022  $GPGLL,1333.19609,S,05215.72393,W,142046.00,A,A
142047.533  $GPRMC,142047.00,A,1333.19613,S,05215.72357,W,0.423,,221022,,,A
142047.567  $GPVTG,,T,,M,0.423,N,0.783,K,A
142047.634  $GPGGA,142047.00,1333.19613,S,05215.72357,W,1,11,0.80,398.3,M,-9.6,M,,
142047.700  $GPGSA,A,3,24,11,06,15,12,13,02,29,20,25,05,,1.60,0.80,1.39
142047.767  $GPGSV,4,1,14,02,41,341,33,05,15,022,18,06,25,136,18,11,54,111,28
142047.834  $GPGSV,4,2,14,12,36,189,22,13,10,010,17,15,20,342,24,19,02,138,15
142047.934  $GPGSV,4,3,14,20,21,060,21,24,80,253,31,25,18,220,20,28,02,086,16
142047.967  $GPGSV,4,4,14,29,30,282,32,32,01,236,
142048.026  $GPGLL,1333.19613,S,05215.72357,W,142047.00,A,A
142048.530  $GPRMC,142048.00,A,1333.19602,S,05215.72334,W,0.416,,221022,,,A
142048.564  $GPVTG,,T,,M,0.416,N,0.770,K,A
142048.631  $GPGGA,142048.00,1333.19602,S,05215.72334,W,1,11,0.80,397.9,M,-9.6,M,,
142048.698  $GPGSA,A,3,24,11,06,15,12,13,02,29,20,25,05,,1.60,0.80,1.39
142048.764  $GPGSV,4,1,14,02,41,341,33,05,15,022,18,06,25,136,19,11,54,111,28
142048.831  $GPGSV,4,2,14,12,36,189,22,13,10,010,17,15,20,342,24,19,02,138,16
142048.932  $GPGSV,4,3,14,20,21,060,22,24,80,253,32,25,18,220,21,28,02,086,16
142048.964  $GPGSV,4,4,14,29,30,282,32,32,01,236,
142049.023  $GPGLL,1333.19602,S,05215.72334,W,142048.00,A,A
142049.535  $GPRMC,142049.00,A,1333.19605,S,05215.72322,W,0.329,,221022,,,A
142049.568  $GPVTG,,T,,M,0.329,N,0.609,K,A
142049.634  $GPGGA,142049.00,1333.19605,S,05215.72322,W,1,11,0.85,397.8,M,-9.6,M,,
142049.701  $GPGSA,A,3,24,11,06,15,12,13,02,29,20,25,05,,1.61,0.85,1.37
142049.768  $GPGSV,4,1,14,02,41,341,32,05,15,022,16,06,25,136,18,11,54,111,27
142049.834  $GPGSV,4,2,14,12,36,189,21,13,10,010,16,15,20,342,24,19,02,138,
142049.935  $GPGSV,4,3,14,20,21,060,22,24,80,253,30,25,18,220,20,28,02,086,16
142049.968  $GPGSV,4,4,14,29,30,282,31,32,01,236,
142050.001  $GPGLL,1333.19605,S,05215.72322,W,142049.00,A,A
142050.533  $GPRMC,142050.00,A,1333.19611,S,05215.72323,W,0.280,,221022,,,A
142050.565  $GPVTG,,T,,M,0.280,N,0.519,K,A
142050.633  $GPGGA,142050.00,1333.19611,S,05215.72323,W,1,11,0.85,398.2,M,-9.6,M,,
142050.700  $GPGSA,A,3,24,11,06,15,12,13,02,29,20,25,05,,1.61,0.85,1.37
142050.767  $GPGSV,4,1,14,02,41,341,33,05,15,022,15,06,25,136,17,11,54,111,27
142050.833  $GPGSV,4,2,14,12,36,189,21,13,10,010,15,15,20,342,25,19,02,138,
142050.933  $GPGSV,4,3,14,20,21,060,20,24,80,253,31,25,18,220,19,28,02,086,15
142050.966  $GPGSV,4,4,14,29,30,282,32,32,01,236,
142050.999  $GPGLL,1333.19611,S,05215.72323,W,142050.00,A,A
142051.533  $GPRMC,142051.00,A,1333.19618,S,05215.72307,W,0.351,,221022,,,A
142051.566  $GPVTG,,T,,M,0.351,N,0.650,K,A
142051.633  $GPGGA,142051.00,1333.19618,S,05215.72307,W,1,11,0.78,397.6,M,-9.6,M,,
142051.699  $GPGSA,A,3,24,11,06,15,12,13,02,29,20,25,05,,1.57,0.78,1.36
142051.766  $GPGSV,4,1,14,02,41,341,33,05,15,022,15,06,25,136,18,11,54,111,27
142051.834  $GPGSV,4,2,14,12,36,189,21,13,10,010,17,15,20,342,25,19,02,138,15
142051.934  $GPGSV,4,3,14,20,21,060,21,24,80,253,31,25,18,220,20,28,02,086,17
142051.967  $GPGSV,4,4,14,29,30,282,32,32,01,236,
142052.025  $GPGLL,1333.19618,S,05215.72307,W,142051.00,A,A
142052.532  $GPRMC,142052.00,A,1333.19617,S,05215.72299,W,0.059,,221022,,,A
142052.565  $GPVTG,,T,,M,0.059,N,0.110,K,A
142052.632  $GPGGA,142052.00,1333.19617,S,05215.72299,W,1,11,0.79,397.6,M,-9.6,M,,
142052.700  $GPGSA,A,3,24,11,06,15,12,13,02,29,20,25,05,,1.65,0.79,1.44
142052.766  $GPGSV,4,1,14,02,41,341,33,05,15,022,15,06,25,136,18,11,54,111,28
142052.832  $GPGSV,4,2,14,12,36,189,22,13,10,010,18,15,20,342,25,19,02,138,16
142052.932  $GPGSV,4,3,14,20,21,060,22,24,80,253,31,25,18,220,21,28,02,086,16
142052.966  $GPGSV,4,4,14,29,30,282,32,32,01,236,
142053.025  $GPGLL,1333.19617,S,05215.72299,W,142052.00,A,A
142053.534  $GPRMC,142053.00,A,1333.19614,S,05215.72291,W,0.104,,221022,,,A
142053.568  $GPVTG,,T,,M,0.104,N,0.192,K,A
142053.634  $GPGGA,142053.00,1333.19614,S,05215.72291,W,1,11,0.78,397.7,M,-9.6,M,,
142053.700  $GPGSA,A,3,24,11,06,15,12,13,02,29,20,25,05,,1.57,0.78,1.36
142053.768  $GPGSV,4,1,14,02,41,341,32,05,15,022,14,06,25,136,17,11,54,111,28
142053.843  $GPGSV,4,2,14,12,36,189,23,13,10,010,16,15,20,342,24,19,02,138,16
142053.935  $GPGSV,4,3,14,20,21,060,23,24,80,253,32,25,18,220,21,28,02,086,15
142053.968  $GPGSV,4,4,14,29,30,282,32,32,01,236,
142054.026  $GPGLL,1333.19614,S,05215.72291,W,142053.00,A,A
142054.532  $GPRMC,142054.00,A,1333.19615,S,05215.72259,W,0.420,,221022,,,A
142054.565  $GPVTG,,T,,M,0.420,N,0.778,K,A
142054.632  $GPGGA,142054.00,1333.19615,S,05215.72259,W,1,11,0.80,397.0,M,-9.6,M,,
142054.699  $GPGSA,A,3,24,11,06,15,12,13,02,29,20,25,05,,1.60,0.80,1.39
142054.765  $GPGSV,4,1,14,02,41,341,32,05,15,022,13,06,25,136,18,11,54,111,28
142054.832  $GPGSV,4,2,14,12,36,189,23,13,10,010,15,15,20,342,25,19,02,138,17
142054.932  $GPGSV,4,3,14,20,21,060,22,24,80,253,32,25,18,220,22,28,02,086,14
142054.966  $GPGSV,4,4,14,29,30,282,32,32,01,236,
142055.024  $GPGLL,1333.19615,S,05215.72259,W,142054.00,A,A
142055.532  $GPRMC,142055.00,A,1333.19606,S,05215.72248,W,0.095,,221022,,,A
142055.565  $GPVTG,,T,,M,0.095,N,0.175,K,A
142055.632  $GPGGA,142055.00,1333.19606,S,05215.72248,W,1,11,0.80,397.5,M,-9.6,M,,
142055.699  $GPGSA,A,3,24,11,06,15,12,13,02,29,20,25,05,,1.60,0.80,1.39
142055.766  $GPGSV,4,1,14,02,41,341,33,05,15,022,14,06,25,136,19,11,54,111,29
142055.832  $GPGSV,4,2,14,12,36,189,24,13,10,010,16,15,20,342,26,19,02,138,17
142055.932  $GPGSV,4,3,14,20,21,060,23,24,80,253,33,25,18,220,23,28,02,086,11
142055.966  $GPGSV,4,4,14,29,30,282,33,32,01,236,
142056.024  $GPGLL,1333.19606,S,05215.72248,W,142055.00,A,A
142056.531  $GPRMC,142056.00,A,1333.19602,S,05215.72245,W,0.067,,221022,,,A
142056.564  $GPVTG,,T,,M,0.067,N,0.124,K,A
142056.631  $GPGGA,142056.00,1333.19602,S,05215.72245,W,1,11,0.80,398.1,M,-9.6,M,,
142056.699  $GPGSA,A,3,24,11,06,15,12,13,02,29,20,25,05,,1.60,0.80,1.39
142056.765  $GPGSV,4,1,14,02,41,341,32,05,15,022,15,06,25,136,20,11,54,111,29
142056.831  $GPGSV,4,2,14,12,36,189,23,13,10,010,17,15,20,342,26,19,02,138,16
142056.931  $GPGSV,4,3,14,20,21,060,24,24,80,253,32,25,18,220,23,28,02,086,12
142056.966  $GPGSV,4,4,14,29,30,282,32,32,01,236,
142057.024  $GPGLL,1333.19602,S,05215.72245,W,142056.00,A,A
142057.531  $GPRMC,142057.00,A,1333.19607,S,05215.72242,W,0.446,,221022,,,A
142057.565  $GPVTG,,T,,M,0.446,N,0.827,K,A
142057.631  $GPGGA,142057.00,1333.19607,S,05215.72242,W,1,10,0.80,398.4,M,-9.6,M,,
142057.698  $GPGSA,A,3,24,11,06,15,12,13,02,29,20,25,,,1.60,0.80,1.39
142057.765  $GPGSV,4,1,14,02,41,341,31,05,15,022,,06,25,136,16,11,54,111,27
142057.832  $GPGSV,4,2,14,12,36,189,21,13,10,010,16,15,20,342,26,19,02,138,16
142057.898  $GPGSV,4,3,14,20,21,060,23,24,80,253,30,25,18,220,21,28,02,086,09
142057.965  $GPGSV,4,4,14,29,30,282,31,32,01,236,
142058.020  $GPGLL,1333.19607,S,05215.72242,W,142057.00,A,A
142058.533  $GPRMC,142058.00,A,1333.19610,S,05215.72252,W,0.564,,221022,,,A
142058.566  $GPVTG,,T,,M,0.564,N,1.044,K,A
142058.633  $GPGGA,142058.00,1333.19610,S,05215.72252,W,1,11,0.80,399.0,M,-9.6,M,,
142058.700  $GPGSA,A,3,24,11,06,15,12,13,02,29,20,25,05,,1.60,0.80,1.39
142058.767  $GPGSV,4,1,14,02,41,341,32,05,15,022,17,06,25,136,15,11,54,111,27
142058.834  $GPGSV,4,2,14,12,36,189,21,13,10,010,14,15,20,342,27,19,02,138,15
142058.933  $GPGSV,4,3,14,20,21,060,22,24,80,253,30,25,18,220,20,28,02,086,08
142058.966  $GPGSV,4,4,14,29,30,282,31,32,01,236,
142059.025  $GPGLL,1333.19610,S,05215.72252,W,142058.00,A,A
142059.533  $GPRMC,142059.00,A,1333.19616,S,05215.72254,W,0.309,,221022,,,A
142059.567  $GPVTG,,T,,M,0.309,N,0.572,K,A
142059.634  $GPGGA,142059.00,1333.19616,S,05215.72254,W,1,11,0.80,399.7,M,-9.6,M,,
142059.700  $GPGSA,A,3,24,11,06,15,12,13,02,29,20,25,05,,1.60,0.80,1.39
142059.768  $GPGSV,4,1,14,02,41,341,32,05,15,022,15,06,25,136,15,11,54,111,27
142059.835  $GPGSV,4,2,14,12,36,189,20,13,10,010,13,15,20,342,27,19,02,138,15
142059.935  $GPGSV,4,3,14,20,21,060,21,24,80,253,30,25,18,220,20,28,02,086,08
142059.967  $GPGSV,4,4,14,29,30,282,31,32,01,236,
142100.027  $GPGLL,1333.19616,S,05215.72254,W,142059.00,A,A
142100.526  $GPRMC,142100.00,A,1333.19611,S,05215.72248,W,0.212,,221022,,,A
142100.559  $GPVTG,,T,,M,0.212,N,0.393,K,A
142100.626  $GPGGA,142100.00,1333.19611,S,05215.72248,W,1,10,0.84,399.6,M,-9.6,M,,
142100.693  $GPGSA,A,3,24,11,06,15,12,13,02,29,20,25,,,1.75,0.84,1.53
142100.760  $GPGSV,4,1,14,02,41,341,31,05,15,022,,06,25,136,15,11,54,111,27
142100.827  $GPGSV,4,2,14,12,36,189,19,13,10,010,12,15,20,342,27,19,02,138,16
142100.893  $GPGSV,4,3,14,20,21,060,21,24,80,253,29,25,18,220,21,28,02,086,08
142100.959  $GPGSV,4,4,14,29,30,282,31,32,01,236,
142101.014  $GPGLL,1333.19611,S,05215.72248,W,142100.00,A,A
142101.540  $GPRMC,142101.00,A,1333.19614,S,05215.72239,W,0.074,,221022,,,A
142101.573  $GPVTG,,T,,M,0.074,N,0.138,K,A
142101.640  $GPGGA,142101.00,1333.19614,S,05215.72239,W,1,11,0.80,399.5,M,-9.6,M,,
142101.707  $GPGSA,A,3,24,11,06,15,12,13,02,29,20,25,05,,1.60,0.80,1.39
142101.774  $GPGSV,4,1,14,02,41,341,32,05,15,022,20,06,25,136,17,11,54,111,28
142101.841  $GPGSV,4,2,14,12,36,189,21,13,10,010,13,15,20,342,26,19,02,138,17
142101.941  $GPGSV,4,3,14,20,21,060,24,24,80,253,34,25,18,220,22,28,02,086,08
142101.974  $GPGSV,4,4,14,29,30,282,31,32,01,236,
142102.033  $GPGLL,1333.19614,S,05215.72239,W,142101.00,A,A
142102.533  $GPRMC,142102.00,A,1333.19615,S,05215.72235,W,0.141,,221022,,,A
142102.566  $GPVTG,,T,,M,0.141,N,0.262,K,A
142102.632  $GPGGA,142102.00,1333.19615,S,05215.72235,W,1,11,0.80,400.1,M,-9.6,M,,
142102.699  $GPGSA,A,3,24,11,06,15,12,13,02,29,20,25,05,,1.60,0.80,1.39
142102.766  $GPGSV,4,1,14,02,41,341,33,05,15,022,21,06,25,136,18,11,54,111,30
142102.833  $GPGSV,4,2,14,12,36,189,22,13,10,010,16,15,20,342,27,19,02,138,18
142102.933  $GPGSV,4,3,14,20,21,060,26,24,80,253,33,25,18,220,23,28,02,086,
142102.966  $GPGSV,4,4,14,29,30,282,32,32,01,236,
142103.000  $GPGLL,1333.19615,S,05215.72235,W,142102.00,A,A
142103.533  $GPRMC,142103.00,A,1333.19621,S,05215.72237,W,0.065,,221022,,,A
142103.567  $GPVTG,,T,,M,0.065,N,0.121,K,A
142103.634  $GPGGA,142103.00,1333.19621,S,05215.72237,W,1,11,0.78,400.7,M,-9.6,M,,
142103.700  $GPGSA,A,3,24,11,06,15,12,13,02,29,20,25,05,,1.56,0.78,1.36
142103.767  $GPGSV,4,1,14,02,41,341,33,05,15,022,21,06,25,136,19,11,54,111,30
142103.834  $GPGSV,4,2,14,12,36,189,23,13,10,010,16,15,20,342,27,19,02,138,18
142103.934  $GPGSV,4,3,14,20,21,060,27,24,80,253,33,25,18,220,23,28,02,086,17
142103.968  $GPGSV,4,4,14,29,30,282,32,32,01,236,
142104.026  $GPGLL,1333.19621,S,05215.72237,W,142103.00,A,A
142104.531  $GPRMC,142104.00,A,1333.19625,S,05215.72243,W,0.215,,221022,,,A
142104.565  $GPVTG,,T,,M,0.215,N,0.398,K,A
142104.631  $GPGGA,142104.00,1333.19625,S,05215.72243,W,1,11,0.78,401.3,M,-9.6,M,,
142104.698  $GPGSA,A,3,24,11,06,15,12,13,02,29,20,25,05,,1.56,0.78,1.36
142104.765  $GPGSV,4,1,14,02,41,341,33,05,15,022,23,06,25,136,20,11,54,111,31
142104.832  $GPGSV,4,2,14,12,36,189,24,13,10,010,16,15,20,342,27,19,02,138,19
142104.932  $GPGSV,4,3,14,20,21,060,27,24,80,253,34,25,18,220,24,28,02,086,17
142104.965  $GPGSV,4,4,14,29,30,282,32,32,01,236,
142105.024  $GPGLL,1333.19625,S,05215.72243,W,142104.00,A,A
142105.534  $GPRMC,142105.00,A,1333.19627,S,05215.72250,W,0.071,,221022,,,A
142105.568  $GPVTG,,T,,M,0.071,N,0.131,K,A
142105.635  $GPGGA,142105.00,1333.19627,S,05215.72250,W,1,11,0.78,401.9,M,-9.6,M,,
142105.701  $GPGSA,A,3,24,11,06,15,12,13,02,29,20,25,05,,1.56,0.78,1.36
142105.768  $GPGSV,4,1,14,02,41,341,33,05,15,022,24,06,25,136,20,11,54,111,31
142105.834  $GPGSV,4,2,14,12,36,189,25,13,10,010,17,15,20,342,27,19,02,138,19
142105.934  $GPGSV,4,3,14,20,21,060,28,24,80,253,34,25,18,220,24,28,02,086,17
142105.968  $GPGSV,4,4,14,29,30,282,32,32,01,236,
142106.026  $GPGLL,1333.19627,S,05215.72250,W,142105.00,A,A
142106.536  $GPRMC,142106.00,A,1333.19638,S,05215.72255,W,0.224,,221022,,,A
142106.569  $GPVTG,,T,,M,0.224,N,0.415,K,A
142106.636  $GPGGA,142106.00,1333.19638,S,05215.72255,W,1,11,0.78,402.7,M,-9.6,M,,
142106.703  $GPGSA,A,3,24,11,06,15,12,13,02,29,20,25,05,,1.56,0.78,1.36
142106.769  $GPGSV,4,1,14,02,41,341,32,05,15,022,25,06,25,136,20,11,54,111,31
142106.836  $GPGSV,4,2,14,12,36,189,25,13,10,010,17,15,20,342,27,19,02,138,18
142106.936  $GPGSV,4,3,14,20,21,060,27,24,80,253,34,25,18,220,24,28,02,086,18
142106.970  $GPGSV,4,4,14,29,30,282,31,32,01,236,
142107.029  $GPGLL,1333.19638,S,05215.72255,W,142106.00,A,A
142107.533  $GPRMC,142107.00,A,1333.19649,S,05215.72253,W,0.073,,221022,,,A
142107.566  $GPVTG,,T,,M,0.073,N,0.134,K,A
142107.633  $GPGGA,142107.00,1333.19649,S,05215.72253,W,1,11,0.78,403.1,M,-9.6,M,,
142107.700  $GPGSA,A,3,24,11,06,15,12,13,02,29,20,25,05,,1.56,0.78,1.36
142107.766  $GPGSV,4,1,14,02,42,341,31,05,15,022,24,06,25,136,18,11,54,111,29
142107.833  $GPGSV,4,2,14,12,36,189,23,13,10,010,16,15,20,342,27,19,02,138,18
142107.933  $GPGSV,4,3,14,20,21,060,26,24,80,253,29,25,18,220,22,28,02,086,17
142107.967  $GPGSV,4,4,14,29,30,282,30,32,01,236,
142108.026  $GPGLL,1333.19649,S,05215.72253,W,142107.00,A,A
142108.534  $GPRMC,142108.00,A,1333.19668,S,05215.72248,W,0.473,,221022,,,A
142108.568  $GPVTG,,T,,M,0.473,N,0.875,K,A
142108.635  $GPGGA,142108.00,1333.19668,S,05215.72248,W,1,11,0.78,403.3,M,-9.6,M,,
142108.701  $GPGSA,A,3,24,11,06,15,12,13,02,29,20,25,05,,1.56,0.78,1.36
142108.780  $GPGSV,4,1,14,02,42,341,31,05,15,022,23,06,25,136,16,11,54,111,29
142108.835  $GPGSV,4,2,14,12,36,189,22,13,10,010,15,15,20,342,27,19,02,138,18
142108.935  $GPGSV,4,3,14,20,21,060,26,24,80,253,34,25,18,220,21,28,02,086,18
142108.969  $GPGSV,4,4,14,29,30,282,31,32,01,236,
142109.026  $GPGLL,1333.19668,S,05215.72248,W,142108.00,A,A
142109.535  $GPRMC,142109.00,A,1333.19672,S,05215.72245,W,0.136,,221022,,,A
142109.569  $GPVTG,,T,,M,0.136,N,0.252,K,A
142109.636  $GPGGA,142109.00,1333.19672,S,05215.72245,W,1,11,0.78,404.1,M,-9.6,M,,
142109.703  $GPGSA,A,3,24,11,06,15,12,13,02,29,20,25,05,,1.56,0.78,1.36
142109.769  $GPGSV,4,1,14,02,42,341,31,05,15,022,24,06,25,136,16,11,54,111,29
142109.836  $GPGSV,4,2,14,12,36,189,22,13,10,010,15,15,20,342,27,19,02,138,18
142109.936  $GPGSV,4,3,14,20,21,060,26,24,80,253,33,25,18,220,22,28,02,086,18
142109.970  $GPGSV,4,4,14,29,30,282,30,32,01,236,
142110.029  $GPGLL,1333.19672,S,05215.72245,W,142109.00,A,A
142110.533  $GPRMC,142110.00,A,1333.19669,S,05215.72233,W,0.545,,221022,,,A
142110.566  $GPVTG,,T,,M,0.545,N,1.010,K,A
142110.633  $GPGGA,142110.00,1333.19669,S,05215.72233,W,1,11,0.78,404.8,M,-9.6,M,,
142110.708  $GPGSA,A,3,24,11,06,15,12,13,02,29,20,25,05,,1.56,0.78,1.36
142110.766  $GPGSV,4,1,14,02,42,341,30,05,16,023,25,06,25,136,16,11,54,111,29
142110.832  $GPGSV,4,2,14,12,36,189,22,13,10,010,14,15,20,342,27,19,02,138,17
142110.933  $GPGSV,4,3,14,20,21,060,26,24,80,253,32,25,18,220,22,28,02,086,18
142110.966  $GPGSV,4,4,14,29,30,282,30,32,01,236,
142111.025  $GPGLL,1333.19669,S,05215.72233,W,142110.00,A,A
142111.531  $GPRMC,142111.00,A,1333.19683,S,05215.72228,W,0.248,,221022,,,A
142111.565  $GPVTG,,T,,M,0.248,N,0.459,K,A
142111.632  $GPGGA,142111.00,1333.19683,S,05215.72228,W,1,11,0.79,404.9,M,-9.6,M,,
142111.698  $GPGSA,A,3,24,11,06,15,12,13,02,29,20,25,05,,1.65,0.79,1.44
142111.765  $GPGSV,4,1,14,02,42,341,30,05,16,023,24,06,24,136,16,11,54,111,28
142111.832  $GPGSV,4,2,14,12,36,189,22,13,10,010,13,15,20,342,26,19,02,138,16
142111.932  $GPGSV,4,3,14,20,21,060,25,24,80,253,31,25,18,220,20,28,02,086,18
142111.965  $GPGSV,4,4,14,29,30,282,29,32,01,236,
142112.024  $GPGLL,1333.19683,S,05215.72228,W,142111.00,A,A
142112.531  $GPRMC,142112.00,A,1333.19688,S,05215.72227,W,0.135,,221022,,,A
142112.565  $GPVTG,,T,,M,0.135,N,0.251,K,A
142112.632  $GPGGA,142112.00,1333.19688,S,05215.72227,W,1,11,0.79,405.5,M,-9.6,M,,
142112.698  $GPGSA,A,3,24,11,06,15,12,13,02,29,20,25,05,,1.65,0.79,1.44
142112.766  $GPGSV,4,1,14,02,42,341,29,05,16,023,25,06,24,136,16,11,54,111,29
142112.835  $GPGSV,4,2,14,12,36,189,21,13,10,010,13,15,20,342,27,19,02,138,
142112.932  $GPGSV,4,3,14,20,21,060,25,24,80,253,31,25,18,220,20,28,02,086,18
142112.965  $GPGSV,4,4,14,29,30,282,29,32,01,236,
142112.999  $GPGLL,1333.19688,S,05215.72227,W,142112.00,A,A
142113.533  $GPRMC,142113.00,A,1333.19702,S,05215.72217,W,0.222,,221022,,,A
142113.566  $GPVTG,,T,,M,0.222,N,0.411,K,A
142113.633  $GPGGA,142113.00,1333.19702,S,05215.72217,W,1,11,0.78,406.0,M,-9.6,M,,
142113.700  $GPGSA,A,3,24,11,06,15,12,13,02,29,20,25,05,,1.56,0.78,1.36
142113.767  $GPGSV,4,1,14,02,42,341,29,05,16,023,26,06,24,136,17,11,54,111,29
142113.833  $GPGSV,4,2,14,12,36,189,21,13,10,010,13,15,20,342,27,19,02,138,20
142113.933  $GPGSV,4,3,14,20,21,060,27,24,80,253,32,25,18,220,22,28,02,086,18
142113.966  $GPGSV,4,4,14,29,30,282,29,32,01,236,
142114.025  $GPGLL,1333.19702,S,05215.72217,W,142113.00,A,A
142114.532  $GPRMC,142114.00,A,1333.19727,S,05215.72201,W,0.157,,221022,,,A
142114.566  $GPVTG,,T,,M,0.157,N,0.291,K,A
142114.633  $GPGGA,142114.00,1333.19727,S,05215.72201,W,1,11,0.79,406.0,M,-9.6,M,,
142114.700  $GPGSA,A,3,24,11,06,15,12,13,02,29,20,25,05,,1.65,0.79,1.44
142114.766  $GPGSV,4,1,14,02,42,341,30,05,16,023,27,06,24,136,18,11,54,111,31
142114.833  $GPGSV,4,2,14,12,36,189,23,13,10,010,14,15,20,342,28,19,02,138,17
142114.933  $GPGSV,4,3,14,20,21,060,27,24,80,253,33,25,18,220,22,28,02,086,19
142114.967  $GPGSV,4,4,14,29,30,282,29,32,01,236,
142115.025  $GPGLL,1333.19727,S,05215.72201,W,142114.00,A,A
142115.531  $GPRMC,142115.00,A,1333.19747,S,05215.72200,W,0.437,,221022,,,A
142115.565  $GPVTG,,T,,M,0.437,N,0.810,K,A
142115.632  $GPGGA,142115.00,1333.19747,S,05215.72200,W,1,11,0.79,406.0,M,-9.6,M,,
142115.698  $GPGSA,A,3,24,11,06,15,12,13,02,29,20,25,05,,1.65,0.79,1.44
142115.765  $GPGSV,4,1,14,02,42,341,30,05,16,023,26,06,24,136,17,11,54,111,30
142115.832  $GPGSV,4,2,14,12,36,189,22,13,10,010,13,15,20,342,28,19,02,138,13
142115.932  $GPGSV,4,3,14,20,21,060,26,24,80,253,32,25,18,220,22,28,02,086,19
142115.966  $GPGSV,4,4,14,29,30,282,29,32,01,236,
142116.024  $GPGLL,1333.19747,S,05215.72200,W,142115.00,A,A
142116.529  $GPRMC,142116.00,A,1333.19760,S,05215.72197,W,0.222,,221022,,,A
142116.563  $GPVTG,,T,,M,0.222,N,0.411,K,A
142116.629  $GPGGA,142116.00,1333.19760,S,05215.72197,W,1,11,0.79,406.2,M,-9.6,M,,
142116.696  $GPGSA,A,3,24,11,06,15,12,13,02,29,20,25,05,,1.65,0.79,1.44
142116.763  $GPGSV,4,1,14,02,42,341,30,05,16,023,27,06,24,136,17,11,53,112,30
142116.830  $GPGSV,4,2,14,12,36,189,23,13,10,010,14,15,20,342,28,19,02,138,13
142116.930  $GPGSV,4,3,14,20,21,060,26,24,80,253,32,25,18,220,21,28,02,086,17
142116.963  $GPGSV,4,4,14,29,30,282,30,32,01,236,
142117.022  $GPGLL,1333.19760,S,05215.72197,W,142116.00,A,A
142117.530  $GPRMC,142117.00,A,1333.19783,S,05215.72195,W,0.678,,221022,,,A
142117.566  $GPVTG,,T,,M,0.678,N,1.256,K,A
142117.630  $GPGGA,142117.00,1333.19783,S,05215.72195,W,1,11,0.79,405.9,M,-9.6,M,,
142117.697  $GPGSA,A,3,24,11,06,15,12,13,02,29,20,25,05,,1.65,0.79,1.44
142117.764  $GPGSV,4,1,14,02,42,341,29,05,16,023,26,06,24,136,14,11,53,112,24
142117.830  $GPGSV,4,2,14,12,36,188,22,13,10,010,13,15,20,342,28,19,02,138,19
142117.930  $GPGSV,4,3,14,20,21,060,25,24,80,253,28,25,18,220,19,28,02,086,15
142117.964  $GPGSV,4,4,14,29,30,282,29,32,01,236,
142118.023  $GPGLL,1333.19783,S,05215.72195,W,142117.00,A,A
142118.531  $GPRMC,142118.00,A,1333.19806,S,05215.72187,W,0.857,,221022,,,A
142118.565  $GPVTG,,T,,M,0.857,N,1.588,K,A
142118.632  $GPGGA,142118.00,1333.19806,S,05215.72187,W,1,11,0.79,405.5,M,-9.6,M,,
142118.697  $GPGSA,A,3,24,11,06,15,12,13,02,29,20,25,05,,1.65,0.79,1.44
142118.764  $GPGSV,4,1,14,02,42,341,30,05,16,023,26,06,24,136,12,11,53,112,26
142118.831  $GPGSV,4,2,14,12,36,188,23,13,10,010,13,15,20,342,29,19,02,138,17
142118.931  $GPGSV,4,3,14,20,21,060,23,24,80,253,30,25,18,220,18,28,02,086,16
142118.965  $GPGSV,4,4,14,29,30,282,30,32,01,236,
142119.023  $GPGLL,1333.19806,S,05215.72187,W,142118.00,A,A
142119.537  $GPRMC,142119.00,A,1333.19817,S,05215.72182,W,0.267,,221022,,,A
142119.570  $GPVTG,,T,,M,0.267,N,0.495,K,A
142119.637  $GPGGA,142119.00,1333.19817,S,05215.72182,W,1,10,0.89,405.6,M,-9.6,M,,
142119.704  $GPGSA,A,3,24,11,15,12,13,02,29,20,25,05,,,1.75,0.89,1.50
142119.770  $GPGSV,4,1,14,02,42,341,29,05,16,023,26,06,24,136,,11,53,112,27
142119.837  $GPGSV,4,2,14,12,36,188,22,13,10,010,14,15,20,342,28,19,02,138,14
142119.904  $GPGSV,4,3,14,20,21,060,24,24,80,253,31,25,18,220,17,28,02,086,16
142119.971  $GPGSV,4,4,14,29,30,282,29,32,01,236,
142120.026  $GPGLL,1333.19817,S,05215.72182,W,142119.00,A,A
142120.527  $GPRMC,142120.00,A,1333.19830,S,05215.72165,W,0.050,,221022,,,A
142120.561  $GPVTG,,T,,M,0.050,N,0.092,K,A
142120.628  $GPGGA,142120.00,1333.19830,S,05215.72165,W,1,10,0.89,405.4,M,-9.6,M,,
142120.695  $GPGSA,A,3,24,11,15,12,13,02,29,20,25,05,,,1.75,0.89,1.50
142120.761  $GPGSV,4,1,14,02,42,341,29,05,16,023,27,06,24,136,,11,53,112,28
142120.833  $GPGSV,4,2,14,12,36,188,22,13,10,010,14,15,20,342,28,19,02,138,11
142120.896  $GPGSV,4,3,14,20,21,060,26,24,80,253,31,25,18,220,19,28,02,086,17
142120.962  $GPGSV,4,4,14,29,30,282,29,32,01,236,
142121.016  $GPGLL,1333.19830,S,05215.72165,W,142120.00,A,A
142121.530  $GPRMC,142121.00,A,1333.19829,S,05215.72157,W,0.342,,221022,,,A
142121.562  $GPVTG,,T,,M,0.342,N,0.634,K,A
142121.629  $GPGGA,142121.00,1333.19829,S,05215.72157,W,1,10,0.89,405.5,M,-9.6,M,,
142121.697  $GPGSA,A,3,24,11,15,12,13,02,29,20,25,05,,,1.75,0.89,1.50
142121.763  $GPGSV,4,1,14,02,42,341,29,05,16,023,26,06,24,136,,11,53,112,27
142121.829  $GPGSV,4,2,14,12,36,188,21,13,10,010,15,15,20,342,28,19,02,138,10
142121.896  $GPGSV,4,3,14,20,21,060,25,24,80,253,30,25,18,220,17,28,02,086,16
142121.962  $GPGSV,4,4,14,29,30,282,29,32,01,236,
142122.017  $GPGLL,1333.19829,S,05215.72157,W,142121.00,A,A
142122.530  $GPRMC,142122.00,A,1333.19824,S,05215.72146,W,0.192,,221022,,,A
142122.564  $GPVTG,,T,,M,0.192,N,0.355,K,A
142122.630  $GPGGA,142122.00,1333.19824,S,05215.72146,W,1,11,0.89,405.7,M,-9.6,M,,
142122.697  $GPGSA,A,3,24,11,06,15,12,13,02,29,20,25,05,,1.75,0.89,1.50
142122.764  $GPGSV,4,1,14,02,42,341,30,05,16,023,27,06,24,136,14,11,53,112,28
142122.831  $GPGSV,4,2,14,12,36,188,22,13,10,010,16,15,20,342,29,19,02,138,10
142122.933  $GPGSV,4,3,14,20,21,060,25,24,80,253,30,25,18,220,17,28,02,086,16
142122.965  $GPGSV,4,4,14,29,30,282,30,32,01,236,
142123.023  $GPGLL,1333.19824,S,05215.72146,W,142122.00,A,A
142123.528  $GPRMC,142123.00,A,1333.19830,S,05215.72135,W,0.338,,221022,,,A
142123.561  $GPVTG,,T,,M,0.338,N,0.626,K,A
142123.628  $GPGGA,142123.00,1333.19830,S,05215.72135,W,1,10,1.05,405.9,M,-9.6,M,,
